[
  {
    "id": "supplier-china-ga-1",
    "name": "China National Gallium Group",
    "country": "China",
    "region": "Yunnan Province",
    "resource": "gallium",
    "capacity_tonnes_yr": 300,
    "neutrality_score": 0.15,
    "latitude": 25.0389,
    "longitude": 102.7183,
    "is_alternative": false
  },
  {
    "id": "supplier-china-ga-2",
    "name": "Inner Mongolia Gallium Processing",
    "country": "China",
    "region": "Inner Mongolia",
    "resource": "gallium",
    "capacity_tonnes_yr": 200,
    "neutrality_score": 0.15,
    "latitude": 40.8174,
    "longitude": 111.7656,
    "is_alternative": false
  },
  {
    "id": "supplier-china-ge-1",
    "name": "Yunnan Germanium Industrial",
    "country": "China",
    "region": "Yunnan Province",
    "resource": "germanium",
    "capacity_tonnes_yr": 60,
    "neutrality_score": 0.15,
    "latitude": 25.0389,
    "longitude": 102.7183,
    "is_alternative": false
  },
  {
    "id": "supplier-china-ge-2",
    "name": "Inner Mongolia Germanium Refinery",
    "country": "China",
    "region": "Inner Mongolia",
    "resource": "germanium",
    "capacity_tonnes_yr": 40,
    "neutrality_score": 0.15,
    "latitude": 40.8174,
    "longitude": 111.7656,
    "is_alternative": false
  },
  {
    "id": "supplier-canada-ge-1",
    "name": "Teck Resources",
    "country": "Canada",
    "region": "British Columbia",
    "resource": "germanium",
    "capacity_tonnes_yr": 25,
    "neutrality_score": 0.90,
    "latitude": 49.2827,
    "longitude": -123.1207,
    "is_alternative": true
  },
  {
    "id": "supplier-belgium-ge-1",
    "name": "Nyrstar",
    "country": "Belgium",
    "region": "Flanders",
    "resource": "germanium",
    "capacity_tonnes_yr": 30,
    "neutrality_score": 0.85,
    "latitude": 51.2194,
    "longitude": 4.4025,
    "is_alternative": true
  },
  {
    "id": "supplier-japan-ga-1",
    "name": "Dowa Holdings",
    "country": "Japan",
    "region": "Akita Prefecture",
    "resource": "gallium",
    "capacity_tonnes_yr": 15,
    "neutrality_score": 0.88,
    "latitude": 39.7186,
    "longitude": 140.1024,
    "is_alternative": true
  },
  {
    "id": "supplier-korea-ga-1",
    "name": "Korea Zinc",
    "country": "South Korea",
    "region": "Onsan",
    "resource": "gallium",
    "capacity_tonnes_yr": 10,
    "neutrality_score": 0.85,
    "latitude": 35.4197,
    "longitude": 129.3562,
    "is_alternative": true
  },
  {
    "id": "supplier-germany-ga-1",
    "name": "PPM Pure Metals",
    "country": "Germany",
    "region": "Saxony",
    "resource": "gallium",
    "capacity_tonnes_yr": 20,
    "neutrality_score": 0.90,
    "latitude": 50.9175,
    "longitude": 13.3433,
    "is_alternative": true
  },
  {
    "id": "supplier-canada-ga-1",
    "name": "5N Plus",
    "country": "Canada",
    "region": "Quebec",
    "resource": "gallium",
    "capacity_tonnes_yr": 12,
    "neutrality_score": 0.90,
    "latitude": 45.5017,
    "longitude": -73.5673,
    "is_alternative": true
  },
  {
    "id": "supplier-uk-ge-1",
    "name": "Indium Corporation UK",
    "country": "United Kingdom",
    "region": "Milton Keynes",
    "resource": "germanium",
    "capacity_tonnes_yr": 8,
    "neutrality_score": 0.85,
    "latitude": 52.0406,
    "longitude": -0.7594,
    "is_alternative": true
  },
  {
    "id": "supplier-australia-li-1",
    "name": "Albemarle (Talison)",
    "country": "Australia",
    "region": "Greenbushes",
    "resource": "lithium",
    "capacity_tonnes_yr": 1200000,
    "neutrality_score": 0.90,
    "latitude": -33.8500,
    "longitude": 116.0500,
    "is_alternative": false
  },
  {
    "id": "supplier-chile-li-1",
    "name": "SQM",
    "country": "Chile",
    "region": "Atacama",
    "resource": "lithium",
    "capacity_tonnes_yr": 180000,
    "neutrality_score": 0.75,
    "latitude": -23.5000,
    "longitude": -68.3000,
    "is_alternative": false
  },
  {
    "id": "supplier-drc-co-1",
    "name": "Glencore (Mutanda)",
    "country": "DR Congo",
    "region": "Lualaba",
    "resource": "cobalt",
    "capacity_tonnes_yr": 25000,
    "neutrality_score": 0.30,
    "latitude": -10.7000,
    "longitude": 25.4000,
    "is_alternative": false
  },
  {
    "id": "supplier-drc-co-2",
    "name": "China Molybdenum (Tenke Fungurume)",
    "country": "DR Congo",
    "region": "Lualaba",
    "resource": "cobalt",
    "capacity_tonnes_yr": 20000,
    "neutrality_score": 0.20,
    "latitude": -10.6000,
    "longitude": 26.2000,
    "is_alternative": false
  },
  {
    "id": "supplier-china-gr-1",
    "name": "Heilongjiang Graphite Hub",
    "country": "China",
    "region": "Heilongjiang",
    "resource": "graphite",
    "capacity_tonnes_yr": 500000,
    "neutrality_score": 0.15,
    "latitude": 47.0000,
    "longitude": 130.0000,
    "is_alternative": false
  },
  {
    "id": "supplier-madagascar-gr-1",
    "name": "Syrah Resources (Vidalia)",
    "country": "Madagascar",
    "region": "Balama",
    "resource": "graphite",
    "capacity_tonnes_yr": 350000,
    "neutrality_score": 0.70,
    "latitude": -13.5000,
    "longitude": 38.5000,
    "is_alternative": true
  }
]
